id_code,city,latitude,longitude,utc_offset,level
EWR,Newark,40.6925,-74.168667,-4,1
BOS,Boston,42.364347,-71.005181,-4,1
DEN,Denver,39.8560963,-104.6737371,-6,1
DFW,Dallas,32.899809,-97.040335,-5,2
ORD,Chicago,41.978611,-87.904722,-5,2
ATL,Atlanta,33.636719,-84.427863,-4,1
MIA,Miami,25.79325,-80.290556,-4,2
LAX,Los Angeles,33.942791,-118.410042,-7,2
SFO,San Francisco,37.618972,-122.374889,-7,1
SWF,Newburgh,41.504094,-74.104839,-4,3